SALE TYPE,SOLD DATE,PROPERTY TYPE,ADDRESS,CITY,STATE OR PROVINCE,ZIP OR POSTAL CODE,PRICE,BEDS,BATHS,LOCATION,SQUARE FEET,LOT SIZE,YEAR BUILT,DAYS ON MARKET,$/SQUARE FEET,HOA/MONTH,STATUS,NEXT OPEN HOUSE START TIME,NEXT OPEN HOUSE END TIME,URL (SEE http://www.redfin.com/buy-a-home/comparative-market-analysis FOR INFO ON PRICING),SOURCE,MLS#,FAVORITE,INTERESTED,LATITUDE,LONGITUDE
MLS Listing,,Single Family Residential,63 Jared Dr,White Plains,NY,10605,849000,3,3.0,Gedney Commons,2597,1921,1987,74,327,550,Active,,,http://www.redfin.com/NY/White-Plains/63-Jared-Dr-10605/home/20184901,OneKey,H6019318,N,Y,41.005312,-73.754431
MLS Listing,,Single Family Residential,138 Rosedale Ave,White Plains,NY,10605,1295000,4,3.5,White Plains,3257,9056,2020,1,398,,Active,,,http://www.redfin.com/NY/White-Plains/138-Rosedale-Ave-10605/unit-138/home/21451231,OneKey,H6040378,N,Y,40.993136,-73.7439009
MLS Listing,,Condo/Co-op,107 Winding Ridge Rd,White Plains,NY,10603,825000,4,3.5,Winding Ridge,3000,436,2001,3,275,500,Active,,,http://www.redfin.com/NY/White-Plains/107-Winding-Ridge-Rd-10603/home/20032703,OneKey,H6040647,N,Y,41.0449668,-73.7854152
MLS Listing,,Single Family Residential,15 Kenilworth Rd,Rye,NY,10580,1748999,5,4.5,Rye,4200,113840,1952,3,416,,Active,,,http://www.redfin.com/NY/Rye/15-Kenilworth-Rd-10580/home/19994154,OneKey,H6040655,N,Y,41.0010773,-73.7222028
MLS Listing,,Condo/Co-op,10 Bryant Cres Unit 1N,White Plains,NY,10605,259900,2,1.0,Bryant Gardens,950,,1952,3,274,1094,Active,,,http://www.redfin.com/NY/White-Plains/10-Bryant-Cres-10605/unit-1N/home/21450472,OneKey,H6039442,N,Y,41.0196265,-73.7507019
MLS Listing,,Condo/Co-op,56 Underhill Ave Unit 1B,West Harrison,NY,10604,139000,1,1.0,Park Knoll,800,,1952,3,174,851,Active,,,http://www.redfin.com/NY/West-Harrison/56-Underhill-Ave-10604/unit-1B/home/53609091,OneKey,H6040609,N,Y,41.0336515,-73.7520001
MLS Listing,,Single Family Residential,67 Eldorado Ct,White Plains,NY,10603,749000,4,2.5,Valimar,2647,5506,2000,3,283,209,Active,,,http://www.redfin.com/NY/White-Plains/67-Eldorado-Ct-10603/home/20032732,OneKey,H6040487,N,Y,41.0589852,-73.7785131
MLS Listing,,Condo/Co-op,89 N Broadway #104,White Plains,NY,10603,450000,2,2.0,White Plains Commons Ii,1447,,1984,3,311,627,Active,,,http://www.redfin.com/NY/White-Plains/89-N-Broadway-10603/unit-104/home/171823667,OneKey,H6035227,N,Y,41.039842,-73.768001
MLS Listing,,Single Family Residential,325 County Center Rd,White Plains,NY,10603,499000,3,2.0,White Plains,1040,14932,1954,3,480,,Active,,,http://www.redfin.com/NY/White-Plains/325-County-Center-Rd-10603/home/20129968,OneKey,H6028891,N,Y,41.0481524,-73.7824197
MLS Listing,,Single Family Residential,1475 Old Orchard St,West Harrison,NY,10604,499000,3,1.0,Quarry Heights,1200,8725,1920,4,416,,Active,,,http://www.redfin.com/NY/West-Harrison/1475-Old-Orchard-St-10604/home/20085543,OneKey,H6039171,N,Y,41.0671864,-73.7507966
MLS Listing,,Single Family Residential,16 Oakridge Rd,White Plains,NY,10607,649000,4,2.0,White Plains,1988,,1957,4,326,,Active,,,http://www.redfin.com/NY/White-Plains/16-Oakridge-Rd-10607/home/20129656,OneKey,H6039713,N,Y,41.0393779,-73.8110509
MLS Listing,,Single Family Residential,273 Hillside Ave,White Plains,NY,10603,349500,3,1.0,White Plains,875,10350,1952,4,399,,Active,,,http://www.redfin.com/NY/White-Plains/273-Hillside-Ave-10603/home/20130616,OneKey,H6039907,N,Y,41.0511909,-73.7891298
MLS Listing,,Single Family Residential,2 Woods Way,White Plains,NY,10605,1349500,3,2.5,White Plains,3400,12894,1985,4,397,,Active,,,http://www.redfin.com/NY/White-Plains/2-Woods-Way-10605/home/20181816,OneKey,H6036223,N,Y,40.995576,-73.7366151
MLS Listing,,Single Family Residential,10 Greene Ln,White Plains,NY,10605,1050000,4,2.5,The Greens,2913,8085,1998,4,360,,Active,,,http://www.redfin.com/NY/White-Plains/10-Greene-Ln-10605/home/145899082,OneKey,H6024577,N,Y,41.0081966,-73.7300182
MLS Listing,,Condo/Co-op,23 Old Mamaroneck Rd Unit 4C,White Plains,NY,10605,179000,1,1.0,Saxon House,900,,1928,4,199,872,Active,,,http://www.redfin.com/NY/White-Plains/23-Old-Mamaroneck-Rd-10605/unit-4C/home/21824340,OneKey,H6039997,N,Y,41.022013,-73.7607023
MLS Listing,,Single Family Residential,11 Romar Ave,White Plains,NY,10605,1549000,5,4.5,White Plains,5300,16914,1907,6,292,,Active,,,http://www.redfin.com/NY/White-Plains/11-Romar-Ave-10605/home/20182379,OneKey,H6028939,N,Y,40.9938461,-73.7512333
MLS Listing,,Single Family Residential,5 Ligi Ln,White Plains,NY,10607,1295000,4,3.5,White Plains,3200,23958,2020,6,405,,Active,,,http://www.redfin.com/NY/White-Plains/5-Ligi-LN-10607/home/171795559,OneKey,H6012545,N,Y,41.0390683,-73.8154394
MLS Listing,,Single Family Residential,3 Ligi Ln,White Plains,NY,10607,1295000,4,3.5,White Plains,3200,26572,2020,6,405,,Active,,,http://www.redfin.com/NY/White-Plains/3-Ligi-LN-10607/home/171795557,OneKey,H6012541,N,Y,41.0390683,-73.8154394
MLS Listing,,Single Family Residential,7 Ligi Ln,White Plains,NY,10607,1295000,4,3.5,White Plains,3200,26572,2020,6,405,,Active,,,http://www.redfin.com/NY/White-Plains/7-Ligi-LN-10607/home/171795553,OneKey,H6012547,N,Y,41.0390683,-73.8154394
MLS Listing,,Condo/Co-op,4 Martine Ave #1609,White Plains,NY,10606,382000,1,1.0,Seasons Condominiums,774,,1990,7,494,625,Active,,,http://www.redfin.com/NY/White-Plains/4-Martine-Ave-10606/unit-1609/home/20189116,OneKey,H6039917,N,Y,41.0300922,-73.7730517
MLS Listing,,Single Family Residential,4 Collyer Pl,White Plains,NY,10605,795000,3,2.0,White Plains,1560,7653,1958,7,510,,Active,,,http://www.redfin.com/NY/White-Plains/4-Collyer-Pl-10605/home/20182324,OneKey,H6039728,N,Y,40.9912158,-73.7419247
MLS Listing,,Condo/Co-op,499 N Broadway Unit 4C,White Plains,NY,10603,449000,3,2.0,The Wedgewood,1500,68245,1966,7,299,1404,Active,,,http://www.redfin.com/NY/White-Plains/499-N-Broadway-10603/unit-4C/home/52329289,OneKey,H6039087,N,Y,41.0500824,-73.7711821
MLS Listing,,Condo/Co-op,2 Westchester Ave Unit 1Q,White Plains,NY,10601,189900,1,1.0,Broadpark Lodge Corp,800,,1927,7,237,705,Active,,,http://www.redfin.com/NY/White-Plains/2-Westchester-Ave-10601/unit-1Q/home/21823613,OneKey,H6039534,N,Y,41.0342283,-73.7621189
MLS Listing,,Condo/Co-op,302 Church St Unit 2C,White Plains,NY,10603,499990,2,1.5,The Wimbledon,1455,,1985,7,344,720,Active,,,http://www.redfin.com/NY/White-Plains/302-Church-St-10603/unit-2C/home/21822879,OneKey,H6031273,N,Y,41.0422858,-73.7698032
MLS Listing,,Single Family Residential,90 Valimar Ct,White Plains,NY,10603,715000,3,3.5,Valimar,2239,5724,2000,7,319,209,Active,,,http://www.redfin.com/NY/White-Plains/90-Valimar-Ct-10603/home/20032737,OneKey,H6039122,N,Y,41.0602788,-73.7776398
MLS Listing,,Single Family Residential,15 Hotel Dr,White Plains,NY,10605,1395000,4,4.0,Gedney Farms,3588,17764,1920,8,389,,Active,,,http://www.redfin.com/NY/White-Plains/15-Hotel-Dr-10605/home/20184944,OneKey,H6038597,N,Y,41.0099389,-73.748728
MLS Listing,,Single Family Residential,10 Orchard Pkwy,White Plains,NY,10606,720000,5,4.0,Fisher Hill,2478,16226,1928,9,291,,Active,,,http://www.redfin.com/NY/White-Plains/10-Orchard-Pkwy-10606/home/20186524,OneKey,H6012781,N,Y,41.0226206,-73.7780994
MLS Listing,,Single Family Residential,133 Topland Rd,White Plains,NY,10605,679000,4,2.0,Haviland Manor,1662,7518,1953,9,409,,Active,,,http://www.redfin.com/NY/White-Plains/133-Topland-Rd-10605/home/20184047,OneKey,H6024363,N,Y,41.0154473,-73.7302481
MLS Listing,,Multi-Family (2-4 Unit),146 Ferris Ave,White Plains,NY,10603,1395000,8,6.0,White Plains,4560,3589,1924,10,306,,Active,,,http://www.redfin.com/NY/White-Plains/146-Ferris-Ave-10603/home/20192331,OneKey,H6039417,N,Y,41.0404712,-73.7753187
MLS Listing,,Condo/Co-op,10 City Pl Unit 14G,White Plains,NY,10601,778000,2,2.5,Trump Tower At City Cent,1359,,2005,10,572,1358,Active,,,http://www.redfin.com/NY/White-Plains/10-City-Pl-10601/unit-14G/home/28454694,OneKey,H6038831,N,Y,41.0322613,-73.7644255
MLS Listing,,Condo/Co-op,2 Overlook Rd Unit 1D2,White Plains,NY,10605,110000,0,1.0,The Gaylord,600,95444,1952,10,183,597,Active,,,http://www.redfin.com/NY/White-Plains/2-Overlook-Rd-10605/unit-1D2/home/49728013,OneKey,H6038308,N,Y,41.0188753,-73.7589097
MLS Listing,,Condo/Co-op,20 Old Mamaroneck Rd Unit 4B,White Plains,NY,10605,125000,0,1.0,Crystal Tower,550,46086,1964,10,227,630,Active,,,http://www.redfin.com/NY/White-Plains/20-Old-Mamaroneck-Rd-10605/unit-4B/home/171718254,OneKey,H6039398,N,Y,41.0222437,-73.7620353
MLS Listing,,Condo/Co-op,28 A Hillside Ter Unit A,White Plains,NY,10601,319900,1,1.0,Hillside Village,782,,1977,10,409,271,Active,,,http://www.redfin.com/NY/White-Plains/28-Hillside-Ter-10601/unit-A/home/20192690,OneKey,H6038576,N,Y,41.03552,-73.772976
MLS Listing,,Single Family Residential,70 Legacy Cir,White Plains,NY,10603,695000,4,2.5,Valimar,2550,6125,2000,12,273,209,Active,,,http://www.redfin.com/NY/White-Plains/70-Legacy-Cir-10603/home/20029445,OneKey,H6012879,N,Y,41.0589772,-73.7781913
MLS Listing,,Single Family Residential,50 Woodlands Ave,White Plains,NY,10607,1189000,4,2.5,White Plains,3100,15242,2019,13,384,,Active,,,http://www.redfin.com/NY/White-Plains/50-Woodlands-Ave-10607/home/20128534,OneKey,H6038855,N,Y,41.0333596,-73.8375644
MLS Listing,,Condo/Co-op,29 Winding Ridge Rd,White Plains,NY,10603,825000,4,3.5,Winding Ridge,2900,436,2000,13,284,500,Active,,,http://www.redfin.com/NY/White-Plains/29-Winding-Ridge-Rd-10603/home/20032692,OneKey,H6038502,N,Y,41.0452271,-73.7890661
MLS Listing,,Condo/Co-op,8 Bryant Cres Unit 2I,White Plains,NY,10605,359000,4,2.0,Bryant Gardens,1450,,1950,14,248,1700,Active,,,http://www.redfin.com/NY/White-Plains/8-Bryant-Cres-10605/unit-2I/home/21450130,OneKey,H6038674,N,Y,41.0194236,-73.7510034
MLS Listing,,Condo/Co-op,21 Lake St Unit 5K,White Plains,NY,10603,384999,1,1.5,The Parkview,1007,87076,1989,14,382,513,Active,,,http://www.redfin.com/NY/White-Plains/21-Lake-St-10603/unit-5K/home/20191840,OneKey,H6038590,N,Y,41.0374167,-73.7618515
MLS Listing,,Single Family Residential,14 Reynal Xing,Scarsdale,NY,10583,1298000,4,3.0,Scarsdale,3149,13068,1952,14,412,,Active,,,http://www.redfin.com/NY/Scarsdale/14-Reynal-Xing-10583/home/26768016,OneKey,H6027495,N,Y,40.9961872,-73.763736
MLS Listing,,Condo/Co-op,10 Cottage Pl Unit 10G,White Plains,NY,10601,390000,1,1.0,The Pavilion Condo,834,,1985,14,468,580,Active,,,http://www.redfin.com/NY/White-Plains/10-Cottage-Pl-10601/unit-10G/home/20191350,OneKey,H6037398,N,Y,41.034798,-73.7689759
MLS Listing,,Single Family Residential,148 Trenton Ave,White Plains,NY,10606,499900,3,1.5,Battle Hill,1160,6504,1924,14,431,,Active,,,http://www.redfin.com/NY/White-Plains/148-Trenton-Ave-10606/home/20190337,OneKey,H6027194,N,Y,41.028935,-73.7872914
MLS Listing,,Condo/Co-op,355 Old Tarrytown Rd #407,White Plains,NY,10603,390000,2,2.0,Hillside Park Ii,1150,,2002,14,339,270,Active,,,http://www.redfin.com/NY/White-Plains/355-Old-Tarrytown-Rd-10603/unit-407/home/20016399,OneKey,H6038698,N,Y,41.047681,-73.792442
MLS Listing,,Condo/Co-op,5 Renaissance Sq Unit 16E,White Plains,NY,10601,1350000,2,2.5,Residences Ritz Carlton,1734,,2008,15,779,1988,Active,,,http://www.redfin.com/NY/White-Plains/5-Renaissance-Sq-10601/unit-16E/home/26767534,OneKey,H6038662,N,Y,41.0333686,-73.7678268
MLS Listing,,Single Family Residential,175 Greenridge Ave,White Plains,NY,10605,650000,3,2.5,Highlands,1545,5942,1926,16,421,,Active,,,http://www.redfin.com/NY/White-Plains/175-Greenridge-Ave-10605/home/20187272,OneKey,H6038605,N,Y,41.0130297,-73.7613688
MLS Listing,,Condo/Co-op,83 N Broadway Unit 1F,White Plains,NY,10603,399000,1,1.0,The Chateau,850,,1921,17,469,445,Active,,,http://www.redfin.com/NY/White-Plains/83-N-Broadway-10603/unit-1F/home/21822301,OneKey,H6038304,N,Y,41.039429,-73.76773
MLS Listing,,Single Family Residential,327 Ridgeway,White Plains,NY,10605,1299000,3,4.0,White Plains,3300,18295,1930,18,394,,Active,,,http://www.redfin.com/NY/White-Plains/327-Ridgeway-10605/home/20182283,OneKey,H6038335,N,Y,41.0074214,-73.7469812
MLS Listing,,Single Family Residential,1255 Post Rd,Scarsdale,NY,10583,899000,5,2.5,Scarsdale,2307,11103,1910,19,390,,Active,,,http://www.redfin.com/NY/Scarsdale/1255-Post-Rd-10583/home/20061241,OneKey,H6038185,N,Y,41.0148773,-73.7792484
MLS Listing,,Single Family Residential,34 Park Cir,White Plains,NY,10603,699000,4,2.5,Highland Park,2228,8011,1938,19,314,,Active,,,http://www.redfin.com/NY/White-Plains/34-Park-Cir-10603/home/20192221,OneKey,H6036106,N,Y,41.0394717,-73.7730436
MLS Listing,,Condo/Co-op,121 N Broadway Unit 11F,White Plains,NY,10603,249000,2,1.0,The Sulgrave,1000,162923,1954,19,249,1077,Active,,,http://www.redfin.com/NY/White-Plains/121-N-Broadway-10603/unit-11F/home/147193489,OneKey,H6037942,N,Y,41.043017,-73.7692807
MLS Listing,,Single Family Residential,40 Alexander Ave,White Plains,NY,10606,559000,3,1.5,White Plains,1568,4918,1927,20,357,,Active,,,http://www.redfin.com/NY/White-Plains/40-Alexander-Ave-10606/home/20184792,OneKey,H6036407,N,Y,41.0265841,-73.7840283
MLS Listing,,Condo/Co-op,8 Granada Cres #7,White Plains,NY,10603,349000,2,2.0,Granada,1180,436,1974,21,296,740,Active,,,http://www.redfin.com/NY/White-Plains/8-Granada-Cres-10603/unit-7/home/20130914,OneKey,H6037388,N,Y,41.0528486,-73.7913148
MLS Listing,,Single Family Residential,27 Heatherbloom Rd,White Plains,NY,10605,1049000,4,3.0,White Plains,3078,17563,1929,21,341,,Active,,,http://www.redfin.com/NY/White-Plains/27-Heatherbloom-Rd-10605/home/20185098,OneKey,H6037868,N,Y,41.015293,-73.7496474
MLS Listing,,Condo/Co-op,210 Martine Ave Unit 6F,White Plains,NY,10601,310000,1,1.0,Winton Codo,900,,1939,21,344,464,Active,,,http://www.redfin.com/NY/White-Plains/210-Martine-Ave-10601/unit-6F/home/20190463,OneKey,H6037850,N,Y,41.0315016,-73.7647472
MLS Listing,,Condo/Co-op,19 Old Mamaroneck Rd Unit 5D,White Plains,NY,10605,275000,2,2.0,Overlook Towers,1175,,1953,22,234,967,Active,,,http://www.redfin.com/NY/White-Plains/19-Old-Mamaroneck-Rd-10605/unit-5D/home/21824973,OneKey,H6037891,N,Y,41.0221931,-73.7608862
MLS Listing,,Single Family Residential,310 Chatterton Pkwy,Hartsdale,NY,10607,725000,4,3.5,Hartsdale,3000,14374,1933,22,242,,Active,,,http://www.redfin.com/NY/Hartsdale/310-Chatterton-Pkwy-10530/home/20124661,OneKey,3213418,N,Y,41.0260876,-73.7899111
MLS Listing,,Single Family Residential,1090 Mamaroneck Ave,White Plains,NY,10605,1520000,5,4.0,White Plains,5350,14039,2005,24,284,,Active,,,http://www.redfin.com/NY/White-Plains/1090-Mamaroneck-Ave-10605/home/147138503,OneKey,H6037403,N,Y,41.0000895,-73.7481992
MLS Listing,,Single Family Residential,50 Sammis Ln,White Plains,NY,10605,790000,4,3.0,Rosedale,2700,12515,1964,24,293,,Active,,,http://www.redfin.com/NY/White-Plains/50-Sammis-Ln-10605/home/20182642,OneKey,H6037559,N,Y,41.0041438,-73.7381092
MLS Listing,,Condo/Co-op,76 Winding Ridge Rd,White Plains,NY,10603,769000,3,3.5,Winding Ridge,2900,436,2000,25,265,500,Active,,,http://www.redfin.com/NY/White-Plains/76-Winding-Ridge-Rd-10603/home/20032024,OneKey,H6035666,N,Y,41.045133,-73.7871935
MLS Listing,,Single Family Residential,13 Indian Trl,White Plains,NY,10603,379850,3,1.0,White Plains,1175,10724,1952,26,323,,Active,,,http://www.redfin.com/NY/White-Plains/13-Indian-Trl-10603/home/20126190,OneKey,H6037220,N,Y,41.0491439,-73.7877051
MLS Listing,,Condo/Co-op,10 City Pl Ph 3F,White Plains,NY,10601,735000,2,2.5,Trump Tower,1421,,2005,26,517,1478,Active,,,http://www.redfin.com/NY/White-Plains/10-City-Pl-10601/unit-3F/home/20009005,OneKey,H6035857,N,Y,41.0322613,-73.7644255
MLS Listing,,Single Family Residential,11 Bradley Ave,White Plains,NY,10607,899000,3,2.0,White Plains,1964,10790,1963,26,458,,Active,,,http://www.redfin.com/NY/White-Plains/11-Bradley-Ave-10607/home/20128521,OneKey,H6037010,N,Y,41.03372,-73.837411
MLS Listing,,Condo/Co-op,30 Hillside Ter Unit F,White Plains,NY,10601,349001,1,1.0,Hillside Terrace,782,,1977,27,446,340,Active,,,http://www.redfin.com/NY/White-Plains/30-Hillside-Ter-10601/unit-F/home/20192606,OneKey,H6032899,N,Y,41.035603,-73.773249
MLS Listing,,Multi-Family (2-4 Unit),53 Custis Ave,White Plains,NY,10603,785000,6,2.0,White Plains,2156,6098,1962,28,364,,Active,,,http://www.redfin.com/NY/White-Plains/53-Custis-Ave-10603/home/20084457,Smart MLS,170290496,N,Y,41.0638039,-73.7704237
MLS Listing,,Single Family Residential,106 Beverly Rd,White Plains,NY,10605,729000,3,2.5,White Plains,1600,4887,1950,28,456,,Active,,,http://www.redfin.com/NY/White-Plains/106-Beverly-Rd-10605/home/20184971,OneKey,H6035616,N,Y,41.0092719,-73.7594728
MLS Listing,,Condo/Co-op,300 Mamaroneck Ave #128,White Plains,NY,10605,465000,2,2.0,Residences At Jefferson,1077,,2006,30,432,716,Active,,,http://www.redfin.com/NY/White-Plains/300-Mamaroneck-Ave-10605/unit-128/home/20008720,OneKey,H6035033,N,Y,41.024812,-73.7638739
MLS Listing,,Condo/Co-op,2 Westchester Ave Unit 1J,White Plains,NY,10601,320000,2,1.0,Broad Park Lodge,1200,,1927,31,267,993,Active,,,http://www.redfin.com/NY/White-Plains/2-Westchester-Ave-10601/unit-1J/home/53610835,OneKey,H6036072,N,Y,41.0343279,-73.7619894
MLS Listing,,Single Family Residential,41 Overlook Rd N,White Plains,NY,10603,529000,3,2.0,White Plains,1538,15172,1979,31,344,,Active,,,http://www.redfin.com/NY/White-Plains/41-Overlook-Rd-N-10603/home/20081166,OneKey,H6030208,N,Y,41.0669155,-73.763805
MLS Listing,,Condo/Co-op,1602 Pondcrest Ln,White Plains,NY,10607,570000,2,2.5,Pondside Village,1539,4356,1991,31,370,,Active,,,http://www.redfin.com/NY/White-Plains/1602-Pondcrest-Ln-10607/home/20129466,OneKey,H6035960,N,Y,41.040794,-73.802928
MLS Listing,,Single Family Residential,211 Woodhampton Dr,White Plains,NY,10603,599900,3,2.5,White Plains,2936,19768,1952,33,204,,Active,,,http://www.redfin.com/NY/White-Plains/211-Wood-Hampton-Dr-10603/home/20132529,OneKey,H6035310,N,Y,41.0547237,-73.7936797
MLS Listing,,Multi-Family (2-4 Unit),149 Old Mamaroneck Rd,White Plains,NY,10605,1500000,8,5.5,White Plains,5210,22072,1924,39,288,,Active,,,http://www.redfin.com/NY/White-Plains/149-Old-Mamaroneck-Rd-10605/home/20185930,OneKey,H6034156,N,Y,41.015817,-73.760525
MLS Listing,,Single Family Residential,104 N Kensico Ave,White Plains,NY,10604,469900,3,1.0,White Plains,1558,7693,1924,39,302,,Active,,,http://www.redfin.com/NY/White-Plains/104-N-Kensico-Ave-10604/home/20188816,OneKey,H6031957,N,Y,41.0416622,-73.7606219
MLS Listing,,Condo/Co-op,25 Franklin Ave Unit 2-J,White Plains,NY,10601,100000,0,1.0,Franklin Plains,625,,1966,40,160,653,Active,,,http://www.redfin.com/NY/White-Plains/25-Franklin-Ave-10601/unit-2-J/home/167346598,OneKey,H6033673,N,Y,41.033822,-73.7606104
MLS Listing,,Single Family Residential,3 Murchison Pl,White Plains,NY,10605,1150000,5,4.5,Gedney Farms,3700,24611,1924,40,311,,Active,,,http://www.redfin.com/NY/White-Plains/3-Murchison-Pl-10605/home/20184943,OneKey,H6032611,N,Y,41.0097123,-73.7482224
MLS Listing,,Single Family Residential,88 Battle Ave,White Plains,NY,10606,524900,4,3.0,Battle Hill,2176,6229,1938,40,241,,Active,,,http://www.redfin.com/NY/White-Plains/88-Battle-Ave-10606/home/20189589,OneKey,H6033803,N,Y,41.0304503,-73.7791565
MLS Listing,,Condo/Co-op,302 Church St Unit 3I,White Plains,NY,10603,429000,1,1.5,The Wimbledon,1365,,1989,41,314,675,Active,,,http://www.redfin.com/NY/White-Plains/302-Church-St-10603/unit-3I/home/23025121,OneKey,H6032516,N,Y,41.0422858,-73.7698032
MLS Listing,,Single Family Residential,65 Crane Ave,White Plains,NY,10603,600000,4,2.0,White Plains,2691,5009,1987,42,223,,Active,,,http://www.redfin.com/NY/White-Plains/65-Crane-Ave-10603/home/20192321,OneKey,H6027404,N,Y,41.0431234,-73.7640348
MLS Listing,,Condo/Co-op,10 Stewart Pl Unit 5DW,White Plains,NY,10603,384000,1,1.0,Stewart Place,812,,1988,45,473,486,Active,,,http://www.redfin.com/NY/White-Plains/10-Stewart-Pl-10603/unit-5DW/home/20191932,OneKey,H6032046,N,Y,41.0380018,-73.762449
MLS Listing,,Single Family Residential,49 Richbell Rd,White Plains,NY,10605,925000,4,2.5,Gedney Farms,2300,18208,1950,47,402,,Active,,,http://www.redfin.com/NY/White-Plains/49-Richbell-Rd-10605/home/20182905,OneKey,H6030950,N,Y,41.0028034,-73.7437175
MLS Listing,,Condo/Co-op,50 Dekalb Ave Unit E7,White Plains,NY,10605,429000,2,2.5,Live Oaks Condominiums,1588,,1982,49,270,651,Active,,,http://www.redfin.com/NY/White-Plains/50-Dekalb-Ave-10605/unit-E7/home/20183660,OneKey,H6032040,N,Y,41.0261655,-73.7598321
MLS Listing,,Multi-Family (2-4 Unit),28 Odell Ave,White Plains,NY,10606,899900,6,5.0,White Plains,3050,6220,1926,53,295,,Active,,,http://www.redfin.com/NY/White-Plains/28-Odell-Ave-10606/home/20186566,OneKey,H6030708,N,Y,41.0230874,-73.7728138
MLS Listing,,Multi-Family (2-4 Unit),7 Dennison St,White Plains,NY,10606,425000,3,2.0,White Plains,1040,2722,1924,54,409,,Active,,,http://www.redfin.com/NY/White-Plains/7-Dennison-St-10606/home/20186863,OneKey,H6030360,N,Y,41.0256196,-73.7722048
MLS Listing,,Vacant Land,Lot 14 Old Tarrytown Rd,White Plains,NY,10603,103200,0,,White Plains,,22974,,60,,,Active,,,http://www.redfin.com/NY/White-Plains/14-Old-Tarrytown-Rd-10603/home/171199085,OneKey,H6019495,N,Y,41.0470639,-73.7758848
MLS Listing,,Condo/Co-op,25 Franklin Ave Unit 2N,White Plains,NY,10601,295000,2,2.0,Franklin Towers,1200,28310,1966,60,246,1025,Active,,,http://www.redfin.com/NY/White-Plains/25-Franklin-Ave-10601/unit-2N/home/171199080,OneKey,H6027500,N,Y,41.033822,-73.7606104
MLS Listing,,Single Family Residential,22 Greene Ln,White Plains,NY,10605,849000,3,2.5,The Greens,2150,8006,1998,60,395,,Active,,,http://www.redfin.com/NY/White-Plains/22-Greene-Ln-10605/home/171199070,OneKey,H6028513,N,Y,41.0087029,-73.7294143
MLS Listing,,Condo/Co-op,21 Lake St Unit 2EE,White Plains,NY,10603,227500,0,1.0,The Parkview,600,87076,1989,61,379,305,Active,,,http://www.redfin.com/NY/White-Plains/21-Lake-St-10603/unit-2EE/home/20013151,OneKey,H6028504,N,Y,41.0374167,-73.7618515
MLS Listing,,Single Family Residential,30 and 34 Starkey Rd,West Harrison,NY,10604,225000,0,1.0,West Harrison,520,11326,1918,61,433,,Active,,,http://www.redfin.com/NY/West-Harrison/34-Starkey-Rd-10604/home/20081806,OneKey,H6028495,N,Y,41.0678824,-73.7527617
MLS Listing,,Single Family Residential,104 Reunion Rd,White Plains,NY,10603,699900,4,2.5,Valimar,2300,5441,2000,63,304,209,Active,,,http://www.redfin.com/NY/White-Plains/104-Reunion-Rd-10603/home/20032789,OneKey,H6028465,N,Y,41.0602777,-73.7786969
MLS Listing,,Single Family Residential,38 Bradley Ave,White Plains,NY,10607,629000,4,2.5,White Plains,2034,14780,1886,63,309,,Active,,,http://www.redfin.com/NY/White-Plains/38-Bradley-Ave-10607/home/20128588,OneKey,H6028231,N,Y,41.0341627,-73.8383455
MLS Listing,,Condo/Co-op,1 Renaissance Sq Unit 14E,White Plains,NY,10601,949900,2,2.5,Ritz Carlton,1664,436,2007,65,571,1889,Active,,,http://www.redfin.com/NY/White-Plains/1-Renaissance-Sq-10601/unit-14E/home/23063765,OneKey,H6027517,N,Y,41.0331361,-73.7675935
MLS Listing,,Single Family Residential,1 Canterbury Rd,White Plains,NY,10607,525000,4,2.0,Orchard Hill,1607,5306,1954,66,327,,Active,,,http://www.redfin.com/NY/White-Plains/1-Canterbury-Rd-10607/home/20129755,OneKey,H6020014,N,Y,41.0403468,-73.8103156
MLS Listing,,Condo/Co-op,4 Martine Ave #210,White Plains,NY,10606,399000,1,1.0,The Seasons,800,,1990,66,499,558,Active,,,http://www.redfin.com/NY/White-Plains/4-Martine-Ave-10606/unit-210/home/20190086,OneKey,H6027484,N,Y,41.0300922,-73.7730517
MLS Listing,,Single Family Residential,19 Antony Rd,White Plains,NY,10605,949000,4,3.5,White Plains,2800,18417,1932,67,339,,Active,,,http://www.redfin.com/NY/White-Plains/19-Antony-Rd-10605/home/20185669,OneKey,H6018921,N,Y,41.0160765,-73.7391205
MLS Listing,,Condo/Co-op,25 Franklin Ave Unit 3H,White Plains,NY,10601,107000,0,1.0,Franklin Towers,598,,1966,68,179,676,Active,,,http://www.redfin.com/NY/White-Plains/25-Franklin-Ave-10601/unit-3H/home/21825337,OneKey,H6026678,N,Y,41.033822,-73.7606104
MLS Listing,,Condo/Co-op,10 Nosband Ave Unit 6K,White Plains,NY,10605,265000,2,1.0,Bristol House,1100,,1920,69,241,1138,Active,,,http://www.redfin.com/NY/White-Plains/10-Nosband-Ave-10605/unit-6K/home/28934914,OneKey,H6025140,N,Y,41.0209856,-73.7599669
MLS Listing,,Multi-Family (2-4 Unit),1-3 Coolidge Ave,White Plains,NY,10606,899000,7,5.0,The Highlands,4221,9283,1928,70,213,,Active,,,http://www.redfin.com/NY/White-Plains/1-Coolidge-Ave-10606/home/20184954,OneKey,H6017422,N,Y,41.01588,-73.7683016
MLS Listing,,Single Family Residential,11 Ria Dr,White Plains,NY,10605,729000,4,2.0,Holbrooke Manor,2511,10324,1950,70,290,,Active,,,http://www.redfin.com/NY/White-Plains/11-Ria-Dr-10605/home/20183375,OneKey,H6026264,N,Y,41.0034573,-73.7514401
MLS Listing,,Condo/Co-op,25 Rockledge Ave #415,White Plains,NY,10601,635000,2,2.0,Westage Towers East,1428,,1988,70,445,1266,Active,,,http://www.redfin.com/NY/White-Plains/25-Rockledge-Ave-10601/unit-415/home/20191661,OneKey,H6025708,N,Y,41.0354645,-73.7716675
MLS Listing,,Condo/Co-op,505 Central Park Ave #617,White Plains,NY,10606,129000,1,1.0,Tompkin Manor,775,,1968,70,166,836,Active,,,http://www.redfin.com/NY/White-Plains/505-Central-Ave-10606/unit-617/home/53610430,OneKey,H6025089,N,Y,41.0282029,-73.7887392
MLS Listing,,Condo/Co-op,292 Main St Unit 1F,White Plains,NY,10601,312500,2,1.0,Broadpark Lodge Corp,1200,32063,1927,73,260,971,Active,,,http://www.redfin.com/NY/White-Plains/292-Main-St-10601/unit-1F/home/21449899,OneKey,H6024974,N,Y,41.0342678,-73.7620762
MLS Listing,,Single Family Residential,12 Belding Ave,White Plains,NY,10603,490000,4,2.0,White Plains,1332,7423,1951,73,368,,Active,,,http://www.redfin.com/NY/White-Plains/12-Belding-Ave-10603/home/20131863,OneKey,H6025202,N,Y,41.0560035,-73.7807192
MLS Listing,,Single Family Residential,123 Cushman Rd,Scarsdale,NY,10583,3450000,5,5.5,Scarsdale,6820,21780,2020,73,506,,Active,,,http://www.redfin.com/NY/Scarsdale/123-Cushman-Rd-10583/home/113880411,OneKey,H6022241,N,Y,41.0065408,-73.771615
MLS Listing,,Condo/Co-op,130 N Kensico Ave #19,White Plains,NY,10604,304900,1,1.0,Spruce Ridge,800,,1988,74,381,259,Active,,,http://www.redfin.com/NY/White-Plains/130-N-Kensico-Ave-10604/unit-19/home/171091851,OneKey,H6024451,N,Y,41.042644,-73.760779
MLS Listing,,Condo/Co-op,34 Underhill Ave Unit 2A,West Harrison,NY,10604,154000,1,1.0,Park Knoll,750,,1952,74,205,894,Active,,,http://www.redfin.com/NY/West-Harrison/34-Underhill-Ave-10604/unit-2A/home/21823645,OneKey,H6025095,N,Y,41.0339709,-73.7520671
MLS Listing,,Single Family Residential,27 Cummings Ave N,White Plains,NY,10603,699000,5,4.5,White Plains,2800,5663,1970,74,250,,Active,,,http://www.redfin.com/NY/White-Plains/27-Cummings-Ave-N-10603/home/20132314,OneKey,H6018485,N,Y,41.0566478,-73.7803975
MLS Listing,,Single Family Residential,38 Wyndham Close,White Plains,NY,10605,879900,2,3.0,Wyndham Close,2800,,1994,74,314,908,Active,,,http://www.redfin.com/NY/White-Plains/38-Wyndham-Close-10605/home/20184330,OneKey,H6025085,N,Y,41.023779,-73.744146
MLS Listing,,Multi-Family (2-4 Unit),21 Pine St,West Harrison,NY,10604,760000,6,4.0,West Harrison,3036,4966,1969,74,250,,Active,,,http://www.redfin.com/NY/West-Harrison/21-Pine-St-10604/home/20116654,OneKey,H6024768,N,Y,41.0391365,-73.7523595
MLS Listing,,Condo/Co-op,15 Greenridge Ave #16,White Plains,NY,10605,515000,2,2.0,The Highlands,1302,,1985,74,396,580,Active,,,http://www.redfin.com/NY/White-Plains/15-Greenridge-Ave-10605/unit-16/home/49729146,OneKey,H6020406,N,Y,41.025852,-73.765329
MLS Listing,,Multi-Family (2-4 Unit),182 Church St,White Plains,NY,10601,685000,6,4.0,White Plains,3641,,1927,75,188,,Active,,,http://www.redfin.com/NY/White-Plains/182-Church-St-10601/home/20191670,OneKey,H6024637,N,Y,41.0376037,-73.7691368
MLS Listing,,Single Family Residential,120 S Broadway,White Plains,NY,10605,689000,5,2.5,White Plains,2380,6238,1924,75,289,,Active,,,http://www.redfin.com/NY/White-Plains/120-S-Broadway-10605/home/20185372,OneKey,H6008616,N,Y,41.0274336,-73.7616906
MLS Listing,,Single Family Residential,26 Wyndham Close,White Plains,NY,10605,755000,2,3.0,Wyndham Close,2304,3737,1989,76,328,907,Active,,,http://www.redfin.com/NY/White-Plains/26-Wyndham-Close-10605/home/20185502,OneKey,H6018612,N,Y,41.023121,-73.744352
MLS Listing,,Single Family Residential,46 Hillair Cir,White Plains,NY,10605,1275000,4,2.5,White Plains,3294,34452,1933,76,387,,Active,,,http://www.redfin.com/NY/White-Plains/46-Hillair-Cir-10605/home/20180126,OneKey,H6009164,N,Y,40.9960653,-73.750245
MLS Listing,,Single Family Residential,27 Oxford Rd,White Plains,NY,10605,879000,3,2.0,White Plains,2775,17433,1952,76,317,,Active,,,http://www.redfin.com/NY/White-Plains/27-Oxford-Rd-10605/home/20185304,OneKey,H6015798,N,Y,41.0143462,-73.7453494
MLS Listing,,Condo/Co-op,16 Minerva Unit 4C,White Plains,NY,10601,105000,2,1.0,Minerva Apartments,900,,1920,77,117,816,Active,,,http://www.redfin.com/NY/White-Plains/16-Minerva-Pl-10601/unit-4C/home/86871448,OneKey,H6022215,N,Y,41.036973,-73.7563816
MLS Listing,,Condo/Co-op,4 Martine Ave #907,White Plains,NY,10606,385000,1,1.5,Seasons Condominuim,900,,1990,79,428,639,Active,,,http://www.redfin.com/NY/White-Plains/4-Martine-Ave-10606/unit-907/home/20190041,OneKey,H6022560,N,Y,41.0300922,-73.7730517
MLS Listing,,Condo/Co-op,16 N Broadway Unit 5C,White Plains,NY,10601,175000,1,1.0,The Bradford House,945,,1955,81,185,871,Active,,,http://www.redfin.com/NY/White-Plains/16-N-Broadway-10601/unit-5C/home/21696699,OneKey,H6022125,N,Y,41.0351646,-73.7630006
MLS Listing,,Single Family Residential,100 Woodlands Ave,White Plains,NY,10607,899000,4,3.0,White Plains,3209,10607,1938,81,280,,Active,,,http://www.redfin.com/NY/White-Plains/100-Woodlands-Ave-10607/home/20128520,OneKey,H6020822,N,Y,41.0321386,-73.8385522
MLS Listing,,Single Family Residential,10 Bogert Ave,White Plains,NY,10606,640000,3,2.0,White Plains,1987,6029,1925,82,322,,Active,,,http://www.redfin.com/NY/White-Plains/10-Bogert-Ave-10606/home/20183934,OneKey,H6016558,N,Y,41.0193813,-73.7803975
MLS Listing,,Single Family Residential,118 Alexander Ave,Hartsdale,NY,10530,569000,4,2.5,Hartsdale,1511,10306,1923,82,377,,Active,,,http://www.redfin.com/NY/Hartsdale/118-Alexander-Ave-10530/home/20124607,OneKey,H6021757,N,Y,41.0257448,-73.7881302
MLS Listing,,Condo/Co-op,31 Greenridge Ave Unit 1E,White Plains,NY,10605,339000,1,1.0,Jefferson Place,689,,2006,82,492,476,Active,,,http://www.redfin.com/NY/White-Plains/31-Greenridge-Ave-10605/unit-1E/home/20009515,OneKey,H6011387,N,Y,41.0243357,-73.7645634
MLS Listing,,Single Family Residential,1183 Mamaroneck Ave,White Plains,NY,10605,799900,4,2.5,White Plains,2878,7501,2017,83,278,,Active,,,http://www.redfin.com/NY/White-Plains/1183-Mamaroneck-Ave-10605/home/23068475,OneKey,H6016668,N,Y,40.9942314,-73.7458452
MLS Listing,,Condo/Co-op,325 Main St Unit 2D,White Plains,NY,10601,225000,1,1.0,Whitefield House,890,,1954,83,253,731,Active,,,http://www.redfin.com/NY/White-Plains/325-Main-St-10601/unit-2D/home/160618857,OneKey,H6021280,N,Y,41.0349685,-73.7621732
MLS Listing,,Single Family Residential,101 Robinhood Rd,White Plains,NY,10605,869000,4,2.5,Barbara Knolls,3032,8651,1976,83,287,,Active,,,http://www.redfin.com/NY/White-Plains/101-Robinhood-Rd-10605/home/20185978,OneKey,H6020827,N,Y,41.0172016,-73.7389366
MLS Listing,,Condo/Co-op,5 Renaissance Sq Unit 16C,White Plains,NY,10601,899000,1,1.5,The Ritz Carlton,1086,2614,2007,83,828,1288,Active,,,http://www.redfin.com/NY/White-Plains/5-Renaissance-Sq-10601/unit-16C/home/26767532,OneKey,H6018928,N,Y,41.0333686,-73.7678268
MLS Listing,,Condo/Co-op,500 High Point Dr #513,Hartsdale,NY,10530,469000,2,1.5,High Point,1192,436,1975,84,393,689,Active,,,http://www.redfin.com/NY/Hartsdale/500-High-Point-Dr-10530/unit-513/home/23036350,OneKey,H6018670,N,Y,41.0335731,-73.7879498
MLS Listing,,Condo/Co-op,30 Windsor Ter Unit 2D,White Plains,NY,10601,249000,1,1.0,The Granada Arms,750,,1929,84,332,534,Active,,,http://www.redfin.com/NY/White-Plains/30-Windsor-Ter-10601/unit-2D/home/170938149,OneKey,H6020648,N,Y,41.034473,-73.7603346
MLS Listing,,Single Family Residential,2 Dickel Rd,Scarsdale,NY,10583,1224999,3,3.0,Scarsdale,1748,14810,1925,84,701,,Active,,,http://www.redfin.com/NY/Scarsdale/2-Dickel-Rd-10583/home/20058537,OneKey,H6018603,N,Y,41.0141783,-73.7789267
MLS Listing,,Vacant Land,Lot 13 Old Tarrytown Rd,White Plains,NY,10603,159000,0,,White Plains,,51449,,84,,,Active,,,http://www.redfin.com/NY/White-Plains/13-Old-Tarrytown-Rd-10603/home/170934807,OneKey,H6020590,N,Y,41.0469535,-73.7757183
MLS Listing,,Condo/Co-op,5 Barker Ave #1602,White Plains,NY,10601,445000,1,1.5,Lareserve Condominium,1308,,1982,88,340,916,Active,,,http://www.redfin.com/NY/White-Plains/5-Barker-Ave-10601/unit-1602/home/170674827,OneKey,H6018729,N,Y,41.035292,-73.770092
MLS Listing,,Single Family Residential,121 Harvard Dr,Hartsdale,NY,10530,669900,3,1.5,Hartsdale,1960,7614,1958,89,342,,Active,,,http://www.redfin.com/NY/Hartsdale/121-Harvard-Dr-10530/home/20186983,OneKey,H6018169,N,Y,41.0252709,-73.78691
MLS Listing,,Single Family Residential,21 Wyndham Close,White Plains,NY,10605,949000,3,3.5,White Plains,2900,,1989,89,327,1004,Active,,,http://www.redfin.com/NY/White-Plains/21-Wyndham-Close-10605/home/20184282,OneKey,H5019247,N,Y,41.023105,-73.74353
MLS Listing,,Single Family Residential,18 Colonial Rd,White Plains,NY,10605,2750000,6,5.5,White Plains,5008,40938,1931,90,549,,Active,,,http://www.redfin.com/NY/White-Plains/18-Colonial-Rd-10605/home/20185779,OneKey,H6017272,N,Y,41.0261405,-73.739833
MLS Listing,,Single Family Residential,43 Wyndham Close,White Plains,NY,10605,925000,2,3.5,Wyndham Close,2840,4691,1989,90,326,882,Active,,,http://www.redfin.com/NY/White-Plains/43-Wyndham-Close-10605/home/20186293,OneKey,H6004868,N,Y,41.023685,-73.743423
MLS Listing,,Condo/Co-op,300 Mamaroneck Ave #411,White Plains,NY,10605,549900,2,2.0,Jefferson Place,1133,,2006,91,485,680,Active,,,http://www.redfin.com/NY/White-Plains/300-Mamaroneck-Ave-10605/unit-411/home/20009087,OneKey,H6015902,N,Y,41.024812,-73.7638739
MLS Listing,,Single Family Residential,166 Hillair Cir,White Plains,NY,10605,1195000,5,3.5,White Plains,3029,78155,1959,91,395,,Active,,,http://www.redfin.com/NY/White-Plains/166-Hillair-Cir-10605/home/20182482,OneKey,H6012842,N,Y,40.999069,-73.7569561
MLS Listing,,Single Family Residential,290 Old Tarrytown Rd,White Plains,NY,10603,520000,4,2.0,White Plains,1552,11552,1958,91,335,,Active,,,http://www.redfin.com/NY/White-Plains/290-Old-Tarrytown-Rd-10603/home/19992981,OneKey,H6018106,N,Y,41.046721,-73.7879349
MLS Listing,,Single Family Residential,21 Gorham Rd,Scarsdale,NY,10583,1350000,6,3.5,Scarsdale,3551,,1918,91,380,,Active,,,http://www.redfin.com/NY/Scarsdale/21-Gorham-Rd-10583/home/20061233,OneKey,H6018089,N,Y,41.0142405,-73.7798919
MLS Listing,,Condo/Co-op,9 Bryant Cres Unit 1-H,White Plains,NY,10605,70000,0,1.0,Bryant Gardens,450,,1952,91,156,623,Active,,,http://www.redfin.com/NY/White-Plains/9-Bryant-Cres-10605/unit-1H/home/44614849,OneKey,H6017452,N,Y,41.0190039,-73.7513209
MLS Listing,,Single Family Residential,34 Hazelton Dr,White Plains,NY,10605,699000,3,1.5,White Plains,1624,5837,1960,94,430,,Active,,,http://www.redfin.com/NY/White-Plains/34-Hazelton-Dr-10605/home/20179560,OneKey,H6012939,N,Y,41.0002445,-73.7616446
MLS Listing,,Single Family Residential,37 Meadowbrook Rd,White Plains,NY,10605,729000,3,2.5,Old Oak Ridge,2106,36425,1955,94,346,,Active,,,http://www.redfin.com/NY/White-Plains/37-Meadowbrook-Rd-10605/home/20188209,OneKey,H6006604,N,Y,41.028095,-73.7426168
MLS Listing,,Single Family Residential,288 Knollwood Rd,White Plains,NY,10607,479000,3,1.5,White Plains,1550,5724,1930,95,309,,Active,,,http://www.redfin.com/NY/White-Plains/288-Knollwood-Rd-10607/home/20126137,OneKey,H6016939,N,Y,41.0441798,-73.80541
MLS Listing,,Condo/Co-op,25 Franklin Ave Unit 3 F,White Plains,NY,10601,175000,1,1.0,Franklin Towers,750,,1966,96,233,866,Active,,,http://www.redfin.com/NY/White-Plains/25-Franklin-Ave-10601/unit-3F/home/21824319,OneKey,H6016560,N,Y,41.033822,-73.7606104
MLS Listing,,Condo/Co-op,39 Columbus Ave Unit 2A,West Harrison,NY,10604,215000,2,1.0,Park Knoll,868,,1952,96,248,1021,Active,,,http://www.redfin.com/NY/West-Harrison/39-Columbus-Ave-10604/unit-2A/home/53615602,OneKey,H6014303,N,Y,41.0339226,-73.7515715
MLS Listing,,Condo/Co-op,2 Overlook Rd Unit 3B7,White Plains,NY,10605,221999,1,1.0,The Gaylord,850,,1954,97,261,885,Active,,,http://www.redfin.com/NY/White-Plains/2-Overlook-Rd-10605/unit-3B7/home/21491066,OneKey,H6013206,N,Y,41.0188753,-73.7589097
MLS Listing,,Condo/Co-op,208 Pondside Dr #208,White Plains,NY,10607,725000,3,2.5,Pondside,2700,4356,1992,97,269,505,Active,,,http://www.redfin.com/NY/White-Plains/208-Pondside-Dr-10607/unit-208/home/21821510,OneKey,H6014472,N,Y,41.041281,-73.8056299
MLS Listing,,Single Family Residential,45 Thompson Ave,White Plains,NY,10603,539900,3,1.5,White Plains,1458,5262,1937,98,370,,Active,,,http://www.redfin.com/NY/White-Plains/45-Thompson-Ave-10603/home/20189726,OneKey,H6012106,N,Y,41.0502267,-73.7661951
MLS Listing,,Condo/Co-op,13 Bryant Cres Unit 2L,White Plains,NY,10605,128000,1,1.0,Bryant Gardens,750,,1952,99,171,892,Active,,,http://www.redfin.com/NY/White-Plains/13-Bryant-Cres-10605/unit-2L/home/40263266,OneKey,H6014751,N,Y,41.0189491,-73.7511601
MLS Listing,,Condo/Co-op,300 Mamaroneck Ave #104,White Plains,NY,10605,445000,2,2.0,Residences At Jefferson,1077,,2006,102,413,689,Active,,,http://www.redfin.com/NY/White-Plains/300-Mamaroneck-Ave-10605/unit-104/home/103494899,OneKey,H6013632,N,Y,41.024812,-73.7638739
MLS Listing,,Condo/Co-op,155 Ferris Ave Unit 6G,White Plains,NY,10603,129000,1,1.0,Summit House,750,112738,1967,102,172,714,Active,,,http://www.redfin.com/NY/White-Plains/155-Ferris-Ave-10603/unit-6G/home/170570069,OneKey,H6001733,N,Y,41.0407808,-73.7745374
MLS Listing,,Single Family Residential,25 Fairview Rd,Scarsdale,NY,10583,3495000,7,6.0,Scarsdale,7106,21209,2020,103,492,,Active,,,http://www.redfin.com/NY/Scarsdale/25-Fairview-Rd-10583/home/20058506,OneKey,H5127445,N,Y,41.011832,-73.7754336
MLS Listing,,Condo/Co-op,13 Bryant Cres Unit 1A,White Plains,NY,10605,68000,0,1.0,Bryant Gardens,450,,1952,107,151,623,Active,,,http://www.redfin.com/NY/White-Plains/13-Bryant-Cres-10605/unit-1A/home/53614424,OneKey,H6011914,N,Y,41.0189491,-73.7511601
MLS Listing,,Condo/Co-op,5 Renaissance Sq Unit 14F,White Plains,NY,10601,1150000,2,2.5,Residences Ritz Carlton,1534,,2008,108,750,1684,Active,,,http://www.redfin.com/NY/White-Plains/5-Renaissance-Sq-10601/unit-14F/home/26767520,OneKey,H6012884,N,Y,41.0333686,-73.7678268
MLS Listing,,Condo/Co-op,1 Renaissance Sq Ph 2C,White Plains,NY,10601,2599000,2,3.5,The Ritz Carlton,3664,,2007,109,709,4323,Active,,,http://www.redfin.com/NY/White-Plains/1-Renaissance-Sq-10601/unit-2C/home/170509153,OneKey,H6011351,N,Y,41.0331361,-73.7675935
MLS Listing,,Single Family Residential,15 Quincy Ln,White Plains,NY,10605,899000,4,2.5,Bloomingdale Estates,2709,12545,1980,110,332,,Active,,,http://www.redfin.com/NY/White-Plains/15-Quincy-Ln-10605/home/20181822,OneKey,H6011814,N,Y,40.99689,-73.7314893
MLS Listing,,Single Family Residential,3 Dunderave Rd,White Plains,NY,10603,505000,4,2.5,White Plains,1400,7976,1955,110,361,,Active,,,http://www.redfin.com/NY/White-Plains/3-Dunderave-Rd-10603/home/20129484,OneKey,H6010870,N,Y,41.0517391,-73.7796161
MLS Listing,,Condo/Co-op,300 Mamaroneck Ave #502,White Plains,NY,10605,399900,1,1.0,Jefferson Place,900,,2006,111,444,575,Active,,,http://www.redfin.com/NY/White-Plains/300-Mamaroneck-Ave-10605/unit-502/home/170493468,OneKey,H6011719,N,Y,41.024812,-73.7638739
MLS Listing,,Condo/Co-op,10 N Broadway Unit 4J,White Plains,NY,10601,143000,1,1.0,Tibbetts Park,815,20830,1954,111,175,1068,Active,,,http://www.redfin.com/NY/White-Plains/10-N-Broadway-10601/unit-4J/home/21823791,OneKey,H6011649,N,Y,41.0349078,-73.7628167
MLS Listing,,Single Family Residential,9 Randolph Rd,White Plains,NY,10607,400000,2,1.5,White Plains,1176,7401,1939,112,340,,Active,,,http://www.redfin.com/NY/White-Plains/9-Randolph-Rd-10607/home/20126275,OneKey,H6010370,N,Y,41.0417078,-73.7799723
MLS Listing,,Condo/Co-op,101 Old Mamaroneck Rd Unit 1C7,White Plains,NY,10605,239000,1,1.0,The Claridge,800,,1953,112,299,870,Active,,,http://www.redfin.com/NY/White-Plains/101-Old-Mamaroneck-Rd-10605/unit-1C7/home/53610171,OneKey,H6010440,N,Y,41.0187538,-73.7601967
MLS Listing,,Single Family Residential,165 Hillair Cir,White Plains,NY,10605,1250000,4,5.0,Hillair Circle,4048,71351,1958,112,309,,Active,,,http://www.redfin.com/NY/White-Plains/165-Hillair-Cir-10605/home/20015955,OneKey,H6011095,N,Y,40.9982597,-73.755738
MLS Listing,,Condo/Co-op,325 Main St Unit 5E,White Plains,NY,10601,120000,0,1.0,The Whitefield House,650,,1954,114,185,461,Active,,,http://www.redfin.com/NY/White-Plains/325-Main-St-10601/unit-5E/home/21826475,OneKey,H6010714,N,Y,41.0349685,-73.7621732
MLS Listing,,Condo/Co-op,4 Martine Ave Ph 115,White Plains,NY,10606,435000,1,1.0,The Seasons Condomimium,773,,1990,115,563,547,Active,,,http://www.redfin.com/NY/White-Plains/4-Martine-Ave-10606/unit-115/home/20190071,OneKey,H6010263,N,Y,41.0300922,-73.7730517
MLS Listing,,Condo/Co-op,500 High Point Dr #813,Hartsdale,NY,10530,387000,2,1.5,High Point Of Hartsdale,1283,,1975,115,302,703,Active,,,http://www.redfin.com/NY/Hartsdale/500-High-Point-Dr-10530/unit-813/home/20126711,OneKey,H6008832,N,Y,41.0335731,-73.7879498
MLS Listing,,Condo/Co-op,56 Doyer Unit 2B,White Plains,NY,10605,155000,1,1.0,Tiffany Towers,840,,1966,115,185,924,Active,,,http://www.redfin.com/NY/White-Plains/56-Doyer-Ave-10605/unit-2B/home/28461111,OneKey,H6009404,N,Y,41.0229189,-73.7627248
MLS Listing,,Condo/Co-op,292 Main Unit 4H,White Plains,NY,10601,319900,2,1.0,Broadpark Lodge,1100,,1927,115,291,983,Active,,,http://www.redfin.com/NY/White-Plains/292-Main-St-10601/unit-4H/home/54974447,OneKey,H6008295,N,Y,41.0345762,-73.7621743
MLS Listing,,Single Family Residential,6 Dunderave Rd,White Plains,NY,10603,595000,4,2.5,Wyndover Park,1549,7697,1954,117,384,,Active,,,http://www.redfin.com/NY/White-Plains/6-Dunderave-Rd-10603/home/19994325,OneKey,H6008537,N,Y,41.0513118,-73.7798459
MLS Listing,,Single Family Residential,14 Antony Rd,White Plains,NY,10605,759000,4,5.0,White Plains,2607,8594,1933,117,291,,Active,,,http://www.redfin.com/NY/White-Plains/14-Antony-Rd-10605/home/20184098,OneKey,H6009278,N,Y,41.0167144,-73.7387527
MLS Listing,,Single Family Residential,30 Dupont Ave,White Plains,NY,10605,1795000,6,4.0,Gedney Farms,4200,19846,1924,118,427,,Active,,,http://www.redfin.com/NY/White-Plains/30-Dupont-Ave-10605/home/20184880,OneKey,H6007550,N,Y,41.0069853,-73.7492797
MLS Listing,,Single Family Residential,2 Hunting Ridge Rd,White Plains,NY,10605,595000,2,1.0,White Plains,1403,20325,1929,118,424,,Active,,,http://www.redfin.com/NY/White-Plains/2-Hunting-Ridge-Rd-10605/home/20182560,OneKey,H6008849,N,Y,40.9995554,-73.7480845
MLS Listing,,Single Family Residential,11 Woodhollow Rd,White Plains,NY,10605,839000,2,2.5,White Plains,1800,3777,1987,119,466,675,Active,,,http://www.redfin.com/NY/White-Plains/11-Woodhollow-Rd-10605/home/20185573,OneKey,H6005395,N,Y,41.0145643,-73.7302481
MLS Listing,,Condo/Co-op,10 Stewart Pl Unit 4EW,White Plains,NY,10603,384000,1,1.0,Stewart Place,886,,1988,119,433,661,Active,,,http://www.redfin.com/NY/White-Plains/10-Stewart-Pl-10603/unit-4EW/home/20191491,OneKey,H6004119,N,Y,41.0380018,-73.762449
MLS Listing,,Condo/Co-op,10 City Pl Unit 14D,White Plains,NY,10601,849000,2,2.5,Trump Tower City Center,1547,23958,2005,122,549,1547,Active,,,http://www.redfin.com/NY/White-Plains/10-City-Pl-10601/unit-14D/home/20010149,OneKey,H6007372,N,Y,41.0322613,-73.7644255
MLS Listing,,Condo/Co-op,5 Renaissance Sq Unit 20G,White Plains,NY,10601,1725000,3,3.5,Ritz Carlton,2139,2614,2008,122,806,2350,Active,,,http://www.redfin.com/NY/White-Plains/5-Renaissance-Sq-10601/unit-20G/home/26767707,OneKey,H6005466,N,Y,41.0333686,-73.7678268
MLS Listing,,Condo/Co-op,1 Renaissance Sq Unit 11D,White Plains,NY,10601,1299888,2,2.5,The Ritz-Carlton,1707,74356920,2007,122,762,1659,Active,,,http://www.redfin.com/NY/White-Plains/1-Renaissance-Sq-10601/unit-11D/home/23049113,OneKey,H6008031,N,Y,41.0331361,-73.7675935
MLS Listing,,Single Family Residential,23 Broadview Ave,White Plains,NY,10607,379400,3,1.5,White Plains,1526,10681,1930,122,249,,Active,,,http://www.redfin.com/NY/White-Plains/23-Broadview-Ave-10607/home/20126085,OneKey,H6007912,N,Y,41.0436933,-73.8063636
MLS Listing,,Multi-Family (2-4 Unit),96 N Broadway,White Plains,NY,10603,725000,5,3.0,White Plains,3200,10441,1776,123,227,,Active,,,http://www.redfin.com/NY/White-Plains/96-N-Broadway-10603/home/20191968,OneKey,H6007650,N,Y,41.0407542,-73.7672982
MLS Listing,,Condo/Co-op,30 N Broadway Unit 1A,White Plains,NY,10601,169999,1,1.0,The Weskora,800,,1957,123,212,733,Active,,,http://www.redfin.com/NY/White-Plains/30-N-Broadway-10601/unit-1A/home/53613544,OneKey,H6006859,N,Y,41.036071,-73.763807
MLS Listing,,Single Family Residential,18 Southminster Dr,White Plains,NY,10604,519999,2,1.0,White Plains,1176,5876,1938,124,442,,Active,,,http://www.redfin.com/NY/White-Plains/18-Southminster-Dr-10604/home/20188579,OneKey,H6006939,N,Y,41.0459111,-73.7588867
MLS Listing,,Condo/Co-op,10 Stewart Pl Unit 10BE,White Plains,NY,10603,435000,1,2.0,Stewart Place,1158,,1988,124,376,768,Active,,,http://www.redfin.com/NY/White-Plains/10-Stewart-Pl-10603/unit-10BE/home/170388114,OneKey,H5130081,N,Y,41.0380018,-73.762449
MLS Listing,,Single Family Residential,225 Rock Creek Ln,Scarsdale,NY,10583,1620000,5,3.5,Scarsdale,3247,14884,1937,125,499,,Active,,,http://www.redfin.com/NY/Scarsdale/225-Rock-Creek-Ln-10583/home/20053973,OneKey,H6006962,N,Y,40.9953578,-73.7610471
MLS Listing,,Condo/Co-op,155 Ferris Ave Unit 11A,White Plains,NY,10603,149900,1,1.0,Summit House,800,250000,1967,127,187,610,Active,,,http://www.redfin.com/NY/White-Plains/155-Ferris-Ave-10603/unit-11A/home/21450580,OneKey,H6006046,N,Y,41.0407808,-73.7745374
MLS Listing,,Multi-Family (2-4 Unit),147 Lake St,White Plains,NY,10604,1185000,8,4.0,White Plains,4000,22852,1954,129,296,,Active,,,http://www.redfin.com/NY/White-Plains/147-Lake-St-10604/home/20013150,OneKey,H6005086,N,Y,41.0421639,-73.753921
MLS Listing,,Condo/Co-op,10 Nosband Ave Unit 6J,White Plains,NY,10605,169000,1,1.0,Bristol House,850,,1930,129,199,796,Active,,,http://www.redfin.com/NY/White-Plains/10-Nosband-Ave-10605/unit-6J/home/170327965,OneKey,H5127493,N,Y,41.0209856,-73.7599669
MLS Listing,,Condo/Co-op,10 Cottage Pl Unit 4G,White Plains,NY,10601,385000,1,1.0,Pavilion,834,,1985,130,462,585,Active,,,http://www.redfin.com/NY/White-Plains/10-Cottage-Pl-10601/unit-4G/home/20191314,OneKey,H5121041,N,Y,41.034798,-73.7689759
MLS Listing,,Condo/Co-op,5 Renaissance Sq Unit 8D,White Plains,NY,10601,3000000,4,4.5,Ritz Carlton,3714,2614,2008,131,808,4259,Active,,,http://www.redfin.com/NY/White-Plains/5-Renaissance-Sq-10601/unit-8D/home/26767552,OneKey,H6003071,N,Y,41.0333686,-73.7678268
MLS Listing,,Condo/Co-op,90 Bryant Ave Unit 1D,White Plains,NY,10605,184000,1,1.0,Surrey Strathmore,825,97330,1939,132,223,858,Active,,,http://www.redfin.com/NY/White-Plains/90-Bryant-Ave-10605/unit-1D/home/170279917,OneKey,H6004052,N,Y,41.0195136,-73.759875
MLS Listing,,Condo/Co-op,300 Mamaroneck Ave #436,White Plains,NY,10605,379000,1,1.0,Jefferson,862,,2006,132,440,563,Active,,,http://www.redfin.com/NY/White-Plains/300-Mamaroneck-Ave-10605/unit-436/home/113580703,OneKey,H6002832,N,Y,41.024812,-73.7638739
MLS Listing,,Condo/Co-op,5 Barker Ave #910,White Plains,NY,10601,370000,1,1.0,La Reserve Condominium,800,,1982,136,463,558,Active,,,http://www.redfin.com/NY/White-Plains/5-Barker-Ave-10601/unit-910/home/170269638,OneKey,H5127243,N,Y,41.035292,-73.770092
MLS Listing,,Single Family Residential,36 Twin Pond Ln,White Plains,NY,10607,1350000,4,2.5,Worthington Estates,3200,20904,1989,136,422,,Active,,,http://www.redfin.com/NY/White-Plains/36-Twin-Pond-Ln-10607/home/20128971,OneKey,H6003344,N,Y,41.0375457,-73.8312924
MLS Listing,,Condo/Co-op,5 Renaissance Sq Unit 26G,White Plains,NY,10601,1795000,3,3.5,Ritz Carlton,2139,,2008,137,839,2453,Active,,,http://www.redfin.com/NY/White-Plains/5-Renaissance-Sq-10601/unit-26G/home/26767741,OneKey,H6002981,N,Y,41.0333686,-73.7678268
MLS Listing,,Condo/Co-op,1 Renaissance Sq Unit 7G,White Plains,NY,10601,727000,1,1.5,Ritz Carlton,1255,436,2007,137,579,1288,Active,,,http://www.redfin.com/NY/White-Plains/1-Renaissance-Sq-10601/unit-7G/home/143026958,OneKey,H6002913,N,Y,41.0331361,-73.7675935
MLS Listing,,Condo/Co-op,1 Renaissance Sq Unit 7F,White Plains,NY,10601,660000,1,1.5,Ritz Carlton,1138,436,2007,137,580,1138,Active,,,http://www.redfin.com/NY/White-Plains/1-Renaissance-Sq-10601/unit-7F/home/119895662,OneKey,H6002912,N,Y,41.0331361,-73.7675935
MLS Listing,,Single Family Residential,17 Morton Pl,White Plains,NY,10603,750000,4,2.0,White Plains,2848,112385,1960,138,263,,Active,,,http://www.redfin.com/NY/White-Plains/17-Morton-Pl-10603/home/20132419,OneKey,H5127959,N,Y,41.0638947,-73.7972873
MLS Listing,,Multi-Family (2-4 Unit),73 Washington Ave N,White Plains,NY,10603,739000,6,2.0,White Plains,2300,6464,1954,140,321,,Active,,,http://www.redfin.com/NY/White-Plains/73-Washington-Ave-N-10603/home/56350143,OneKey,H6001857,N,Y,41.060587,-73.7715269
MLS Listing,,Single Family Residential,129 Cushman Rd,Scarsdale,NY,10583,3495000,7,7.5,Scarsdale,7853,21780,2020,140,445,,Active,,,http://www.redfin.com/NY/Scarsdale/129-Cushman-Rd-10583/home/113880417,OneKey,H6001502,N,Y,41.0073223,-73.7719583
MLS Listing,,Condo/Co-op,5 Renaissance Sq Unit 41PH10CG,White Plains,NY,10601,9500000,6,7.0,Ritz Carlton,11000,,2008,147,864,12340,Active,,,http://www.redfin.com/NY/White-Plains/5-Renaissance-Sq-10601/unit-41PH10CG/home/170175172,OneKey,H5130063,N,Y,41.0333686,-73.7678268
MLS Listing,,Single Family Residential,6 Washington Ave N,Valhalla,NY,10603,450000,4,1.0,Valhalla,1800,8516,1910,150,250,,Active,,,http://www.redfin.com/NY/White-Plains/6-Washington-Ave-N-10603/home/56350608,OneKey,H5127984,N,Y,41.0573296,-73.7696883
MLS Listing,,Single Family Residential,28 Rosemont Blvd,White Plains,NY,10607,375000,2,2.0,White Plains,1080,4866,1970,151,347,,Active,,,http://www.redfin.com/NY/White-Plains/28-Rosemont-Blvd-10607/home/20132799,OneKey,H5129298,N,Y,41.0427683,-73.793266
MLS Listing,,Condo/Co-op,25 Franklin Ave Unit 3L,White Plains,NY,10601,88500,0,1.0,Franklin Towers,575,,1966,154,154,685,Active,,,http://www.redfin.com/NY/White-Plains/25-Franklin-Ave-10601/unit-3L/home/144873520,OneKey,H5128771,N,Y,41.033822,-73.7606104
MLS Listing,,Condo/Co-op,23 City Pl Unit THA,White Plains,NY,10601,1175000,3,3.5,The Lofts At City Place,3000,,2005,154,392,3400,Active,,,http://www.redfin.com/NY/White-Plains/23-City-Pl-10601/unit-THA/home/147178942,OneKey,H5128751,N,Y,41.031964,-73.7647269
MLS Listing,,Condo/Co-op,3 Bryant Cres Unit 1H,White Plains,NY,10605,79000,0,1.0,Bryant Gardens,450,,1952,157,176,500,Active,,,http://www.redfin.com/NY/White-Plains/3-Bryant-Cres-10605/unit-1H/home/21824026,OneKey,H5127579,N,Y,41.0190707,-73.7539533
MLS Listing,,Condo/Co-op,101 Old Mamaroneck Rd Unit 1B4,White Plains,NY,10605,250000,1,1.0,The Claridge,950,,1954,159,263,1083,Active,,,http://www.redfin.com/NY/White-Plains/101-Old-Mamaroneck-Rd-10605/unit-1B4/home/21450477,OneKey,H5127035,N,Y,41.0187538,-73.7601967
MLS Listing,,Single Family Residential,23 Drago Way,White Plains,NY,10607,2000000,4,4.0,Westchester View Ln Exte,5000,42689,2020,162,400,,Active,,,http://www.redfin.com/NY/White-Plains/Unknown-10607/home/52269779,OneKey,H5126770,N,Y,41.029433,-73.829525
MLS Listing,,Condo/Co-op,1 Renaissance Sq Unit 31A,White Plains,NY,10601,899000,2,2.5,Ritz Carlton,1453,,2007,165,619,1605,Active,,,http://www.redfin.com/NY/White-Plains/1-Renaissance-Sq-10601/unit-31A/home/23076187,OneKey,H5125827,N,Y,41.0331361,-73.7675935
MLS Listing,,Single Family Residential,405 Old Kensico Rd,White Plains,NY,10603,539000,3,3.0,White Plains,1568,21667,2003,170,344,,Active,,,http://www.redfin.com/NY/White-Plains/405-Old-Kensico-Rd-10603/home/20017716,OneKey,H5125113,N,Y,41.0456362,-73.7766746
MLS Listing,,Condo/Co-op,25 City Pl Unit 3A,White Plains,NY,10601,720000,2,2.0,The Lofts At City Center,1469,,2005,172,490,1555,Active,,,http://www.redfin.com/NY/White-Plains/25-City-Pl-10601/unit-3A/home/20009003,OneKey,H5124593,N,Y,41.032069,-73.764832
MLS Listing,,Single Family Residential,30 Maryton Rd,White Plains,NY,10603,354000,2,1.0,White Plains,1325,10990,1939,174,267,,Active,,,http://www.redfin.com/NY/White-Plains/30-Maryton-Rd-10603/home/20130880,OneKey,H5123892,N,Y,41.0585563,-73.7771342
MLS Listing,,Single Family Residential,134 Woodbrook Rd,White Plains,NY,10605,949900,2,3.5,The Ridgeway,2229,4626,1996,175,426,675,Active,,,http://www.redfin.com/NY/White-Plains/134-Woodbrook-Rd-10605/home/20185566,OneKey,H5123641,N,Y,41.012559,-73.72876
MLS Listing,,Single Family Residential,25 Whitewood Rd,White Plains,NY,10603,675000,3,2.0,White Plains,1750,20517,1956,202,386,,Active,,,http://www.redfin.com/NY/White-Plains/25-Whitewood-Rd-10603/home/20132461,OneKey,H5117836,N,Y,41.0629211,-73.7942541
MLS Listing,,Vacant Land,1649 Hall Ave,White Plains,NY,10604,145000,0,,White Plains,,15033,,202,,,Active,,,http://www.redfin.com/NY/White-Plains/1649-Hall-Ave-10604/home/20081799,OneKey,H5118459,N,Y,41.0551892,-73.7513942
MLS Listing,,Condo/Co-op,10 N Broadway Unit 1C,White Plains,NY,10601,139000,2,1.0,Tibbets Park,875,,1954,206,159,1647,Active,,,http://www.redfin.com/NY/White-Plains/10-N-Broadway-10601/unit-1C/home/53611440,OneKey,H5117453,N,Y,41.0349078,-73.7628167
MLS Listing,,Single Family Residential,20 Valley Rd,White Plains,NY,10604,559900,3,1.0,Woodcrest Heights,1446,8773,1925,208,387,,Active,,,http://www.redfin.com/NY/White-Plains/20-Valley-Rd-10604/home/20188200,OneKey,H5116424,N,Y,41.040555,-73.7581958
MLS Listing,,Single Family Residential,82 Riverdale Ave,White Plains,NY,10607,475000,3,2.0,White Plains,1146,8311,1985,208,414,,Active,,,http://www.redfin.com/NY/White-Plains/82-Riverdale-Ave-10607/home/20132395,OneKey,H5115777,N,Y,41.0451767,-73.7940014
MLS Listing,,Single Family Residential,22 Dekalb Ave,White Plains,NY,10605,699000,3,2.0,White Plains,2042,6233,1924,208,342,,Active,,,http://www.redfin.com/NY/White-Plains/22-Dekalb-Ave-10605/home/20188099,OneKey,H5111122,N,Y,41.0279152,-73.7607713
MLS Listing,,Single Family Residential,30 Fairview Rd,Scarsdale,NY,10583,1820000,5,4.5,Scarsdale,3618,16553,1953,209,503,,Active,,,http://www.redfin.com/NY/Scarsdale/30-Fairview-Rd-10583/home/20058186,OneKey,H5115292,N,Y,41.0110297,-73.7755945
MLS Listing,,Multi-Family (2-4 Unit),57 Washington Ave N,White Plains,NY,10603,439000,4,2.0,White Plains,1600,,1900,210,274,,Active,,,http://www.redfin.com/NY/White-Plains/57-Washington-Ave-N-10603/home/20085003,OneKey,H5111260,N,Y,41.059977,-73.770182
MLS Listing,,Condo/Co-op,12 Old Mamaroneck Rd Unit 3N,White Plains,NY,10605,149900,1,1.0,Crystal House,839,33432,1960,210,179,787,Active,,,http://www.redfin.com/NY/White-Plains/12-Old-Mamaroneck-Rd-10605/unit-3N/home/169587197,OneKey,H5114973,N,Y,41.022572,-73.762449
MLS Listing,,Condo/Co-op,2 Overlook Rd Unit 2D3,White Plains,NY,10605,225000,1,1.0,The Gaylord,1000,,1952,215,225,1196,Active,,,http://www.redfin.com/NY/White-Plains/2-Overlook-Rd-10605/unit-2D3/home/21826070,OneKey,H5111885,N,Y,41.0188753,-73.7589097
MLS Listing,,Condo/Co-op,15 Stewart Pl Unit 12E,White Plains,NY,10603,419000,2,2.0,Heritage Towers,1178,1178,1972,220,356,605,Active,,,http://www.redfin.com/NY/White-Plains/15-Stewart-Pl-10603/unit-12E/home/20189224,OneKey,H5105667,N,Y,41.0378406,-73.7634602
MLS Listing,,Condo/Co-op,205 W Post Rd Unit 2K,White Plains,NY,10606,163000,2,1.0,"Netherland Gardens,Llc",900,,1953,221,181,1083,Active,,,http://www.redfin.com/NY/White-Plains/205-W-Post-Rd-10606/unit-2K/home/58794245,OneKey,H5105752,N,Y,41.0197331,-73.7761229
MLS Listing,,Condo/Co-op,12 Old Mamaroneck Rd Unit 7N,White Plains,NY,10605,129999,1,1.0,Crystal House,839,,1960,234,155,935,Active,,,http://www.redfin.com/NY/White-Plains/12-Old-Mamaroneck-Rd-10605/unit-7N/home/50260985,OneKey,H5090301,N,Y,41.022572,-73.762449
MLS Listing,,Condo/Co-op,16 N Broadway Unit 3F,White Plains,NY,10601,360000,3,2.0,Bradford House,1560,,1955,244,231,1478,Active,,,http://www.redfin.com/NY/White-Plains/16-N-Broadway-10601/unit-3F/home/53611363,OneKey,H5077717,N,Y,41.0351646,-73.7630006
MLS Listing,,Single Family Residential,6 Westway,White Plains,NY,10605,1250000,4,3.0,Gedney Farms,4200,20377,1951,249,298,,Active,,,http://www.redfin.com/NY/White-Plains/6-Westway-10605/home/20184940,OneKey,H5071346,N,Y,41.0094945,-73.7500381
MLS Listing,,Single Family Residential,101 S Manor Dr,White Plains,NY,10603,999000,7,6.0,White Plains,5431,42275,1978,256,184,,Active,,,http://www.redfin.com/NY/White-Plains/101-Manor-Dr-10603/home/20001230,OneKey,H5058712,N,Y,41.0535594,-73.7942541
MLS Listing,,Single Family Residential,3 Lafayette St,White Plains,NY,10606,417000,4,1.0,White Plains,1314,5445,1924,260,317,,Active,,,http://www.redfin.com/NY/White-Plains/3-Lafayette-St-10606/home/20187078,OneKey,H5056103,N,Y,41.0263522,-73.7784211
MLS Listing,,Single Family Residential,1 Lafayette St,White Plains,NY,10606,420000,4,2.0,White Plains,1626,5532,1924,260,258,,Active,,,http://www.redfin.com/NY/White-Plains/1-Lafayette-St-10606/home/20187007,OneKey,H5056057,N,Y,41.0264105,-73.778559
MLS Listing,,Single Family Residential,4 Windward Ave,White Plains,NY,10605,1199000,6,4.5,White Plains,6000,21244,2002,262,200,,Active,,,http://www.redfin.com/NY/White-Plains/4-Windward-Ave-10605/home/20044818,OneKey,H5050164,N,Y,40.9905874,-73.739833
MLS Listing,,Condo/Co-op,5 Renaissance Sq Unit 30C,White Plains,NY,10601,1850000,2,2.5,Ritz Carlton Westchester,2304,2614,2008,264,803,2642,Active,,,http://www.redfin.com/NY/White-Plains/5-Renaissance-Sq-10601/unit-30C/home/26767791,OneKey,H5048938,N,Y,41.0333686,-73.7678268
MLS Listing,,Condo/Co-op,107 N Broadway Unit 115A,White Plains,NY,10603,510000,3,2.5,White Plains Commons,1669,,1980,273,306,566,Active,,,http://www.redfin.com/NY/White-Plains/107-N-Broadway-10603/unit-115A/home/52059579,OneKey,H5008122,N,Y,41.0412588,-73.7690678
MLS Listing,,Single Family Residential,265 Old Mamaroneck Rd,White Plains,NY,10605,1100000,4,4.5,White Plains,3699,13277,1925,295,297,,Active,,,http://www.redfin.com/NY/White-Plains/265-Old-Mamaroneck-Rd-10605/home/20187331,OneKey,H4832227,N,Y,41.00788,-73.761473
MLS Listing,,Single Family Residential,11 Salem Rd,White Plains,NY,10603,759900,4,3.0,Mayfair Acres,3215,20909,1937,299,236,,Active,,,http://www.redfin.com/NY/White-Plains/11-Salem-Rd-10603/home/20133084,OneKey,H5007302,N,Y,41.0711702,-73.7978618
MLS Listing,,Condo/Co-op,12 Westchester Ave Unit 2D,White Plains,NY,10601,279000,2,1.0,12 Westchester Avenue Ll,1200,35318,1954,299,233,1024,Active,,,http://www.redfin.com/NY/White-Plains/12-Westchester-Ave-10601/unit-2D/home/168040140,OneKey,H4922309,N,Y,41.033902,-73.761811
MLS Listing,,Single Family Residential,55 Jackson Pl,White Plains,NY,10603,479000,4,2.0,White Plains,1974,9448,1954,304,243,,Active,,,http://www.redfin.com/NY/White-Plains/55-Jackson-Pl-10603/home/20130530,OneKey,H5003134,N,Y,41.0517038,-73.7828334
MLS Listing,,Vacant Land,124 Old Mamaroneck Rd,White Plains,NY,10605,599000,0,,Highlands,,28009,,312,,,Active,,,http://www.redfin.com/NY/White-Plains/124-Old-Mamaroneck-Rd-10605/home/20187699,OneKey,H4993701,N,Y,41.017271,-73.761594
MLS Listing,,Condo/Co-op,25 Rockledge Ave Unit 804W,White Plains,NY,10601,369500,1,1.0,Westage Towers,825,,1986,336,448,645,Active,,,http://www.redfin.com/NY/White-Plains/25-Rockledge-Ave-10601/unit-804W/home/167127607,OneKey,H4961755,N,Y,41.035639,-73.7712124
MLS Listing,,Single Family Residential,11 Meadowbrook Rd,White Plains,NY,10605,1465750,5,6.5,White Plains,4887,41334,1988,341,300,,Active,,,http://www.redfin.com/NY/White-Plains/11-Meadowbrook-Rd-10605/home/20185719,OneKey,H4951667,N,Y,41.0265332,-73.7434215
MLS Listing,,Single Family Residential,65 Jennings Rd,White Plains,NY,10605,559000,4,2.0,White Plains,1388,8041,1953,357,403,,Active,,,http://www.redfin.com/NY/White-Plains/65-Jennings-Rd-10605/home/20183778,OneKey,H4947943,N,Y,41.0178443,-73.7298343
MLS Listing,,Single Family Residential,26 Fairview Rd,Scarsdale,NY,10583,2895000,7,6.5,Scarsdale,6500,13504,2019,392,445,,Active,,,http://www.redfin.com/NY/Scarsdale/26-Fairview-Rd-10583/home/20058528,OneKey,H4922616,N,Y,41.0113925,-73.7758473
MLS Listing,,Single Family Residential,15 Drago Way,White Plains,NY,10607,1990000,4,3.5,Carriage Hill,5000,43560,2019,397,398,,Active,,,http://www.redfin.com/NY/White-Plains/Unknown-10607/home/52269780,OneKey,H4923472,N,Y,41.030532,-73.829176
MLS Listing,,Single Family Residential,5 Drago Way,White Plains,NY,10607,1400000,4,3.5,Carriage Hill,4800,32670,2019,405,292,,Active,,,http://www.redfin.com/NY/White-Plains/Unknown-10607/home/52269783,OneKey,H4921936,N,Y,41.031892,-73.829395
MLS Listing,,Condo/Co-op,1 Renaissance Sq Ph 2EFG,White Plains,NY,10601,4195000,3,2.5,Ritz Carlton,5030,,2007,411,834,5611,Active,,,http://www.redfin.com/NY/White-Plains/1-Renaissance-Sq-10601/unit-2EFG/home/161473513,OneKey,H4913842,N,Y,41.0331361,-73.7675935
MLS Listing,,Condo/Co-op,90 Bryant Ave Unit Embassy-TE,White Plains,NY,10605,173000,2,1.5,Surrey Strathmore,1403,,1939,417,123,1933,Active,,,http://www.redfin.com/NY/White-Plains/90-Bryant-Ave-10605/home/20184336,OneKey,H4919000,N,Y,41.0195136,-73.759875
MLS Listing,,Single Family Residential,1 Amanda Ct,White Plains,NY,10607,995000,4,3.0,White Plains,3814,40977,2003,419,261,,Active,,,http://www.redfin.com/NY/White-Plains/1-Amanda-Ct-10607/home/20018037,OneKey,H4917806,N,Y,41.0394628,-73.8300748
MLS Listing,,Condo/Co-op,6 Bryant Cres Unit 2G,White Plains,NY,10605,219900,2,1.0,Bryant Gardens,900,,1950,426,244,1063,Active,,,http://www.redfin.com/NY/White-Plains/6-Bryant-Cres-10605/unit-2G/home/143355711,OneKey,H4916178,N,Y,41.0191545,-73.7523685
MLS Listing,,Condo/Co-op,5 Renaissance Sq Unit 30AB,White Plains,NY,10601,2650000,3,3.5,Ritz Carlton,3044,,2008,437,871,3445,Active,,,http://www.redfin.com/NY/White-Plains/5-Renaissance-Sq-10601/unit-30AB/home/52385722,OneKey,H4914342,N,Y,41.0333686,-73.7678268
MLS Listing,,Single Family Residential,392 North St,White Plains,NY,10605,1500000,5,4.5,White Plains,5000,97914,1929,594,300,,Active,,,http://www.redfin.com/NY/White-Plains/392-North-St-10605/home/20185793,OneKey,H4847081,N,Y,41.0236263,-73.7410283
MLS Listing,,Multi-Family (2-4 Unit),207 Central Ave,White Plains,NY,10606,1290000,11,5.0,White Plains,4487,6447,1924,595,287,,Active,,,http://www.redfin.com/NY/White-Plains/207-Central-Ave-10606/home/20192739,OneKey,H4847067,N,Y,41.035808,-73.7798459
MLS Listing,,Vacant Land,22 Nethermont Ave,White Plains,NY,10603,220000,0,,White Plains,,7192,,622,,,Active,,,http://www.redfin.com/NY/White-Plains/22-Nethermont-Ave-10603/home/21451507,OneKey,H4842626,N,Y,41.0587019,-73.762854
MLS Listing,,Single Family Residential,86 Davis Ave,White Plains,NY,10605,634900,4,3.5,The Highlands,2312,5837,1927,690,275,,Active,,,http://www.redfin.com/NY/White-Plains/86-Davis-Ave-10605/home/20185726,OneKey,H4830429,N,Y,41.0210943,-73.7669765
MLS Listing,,Condo/Co-op,5 Renaissance Sq Unit 41PH10G,White Plains,NY,10601,4200000,3,3.5,Ritz Carlton,5403,,2008,802,777,5853,Active,,,http://www.redfin.com/NY/White-Plains/5-Renaissance-Sq-10601/unit-41PH10G/home/147598304,OneKey,H4810596,N,Y,41.0333686,-73.7678268
MLS Listing,,Condo/Co-op,5 Renaissance Sq Unit 39PH8G,White Plains,NY,10601,3500000,4,3.5,Ritz Carlton,5038,,2008,844,695,5848,Active,,,http://www.redfin.com/NY/White-Plains/5-Renaissance-Sq-10601/unit-39PH8G/home/144796515,OneKey,H4804235,N,Y,41.0333686,-73.7678268
MLS Listing,,Vacant Land,Gilbert Pl,White Plains,NY,10604,225000,,,White Plains,7020,7017,,1490,32,,Active,,,http://www.redfin.com/NY/White-Plains/Gilbert-Pl-10604/home/23098143,HGMLS,4618506,N,Y,41.048991,-73.760256
MLS Listing,,Vacant Land,63 Buckout Rd,West Harrison,NY,10604,650000,0,,West Harrison,,43560,,1852,,,Active,,,http://www.redfin.com/NY/White-Plains/63-Buckout-Rd-10604/home/52269745,OneKey,H4516418,N,Y,41.0556471,-73.7544253
For-Sale-by-Owner Listing,,Condo/Co-op,25 Rockledge Ave Apt 906w,White Plains,NY,10601,600000,2,2.0,White Plains,1219,,1988,69,492,,Active,,,http://www.redfin.com/NY/White-Plains/25-Rockledge-Ave-10601/unit-906W/home/20190927,Fizber.com,5051163,N,Y,41.035639,-73.7712124
